{
    "ひだまりスケッチ": [
        {
            "title": "ひだまりスケッチ",
            "lat": "32.8111729",
            "lng": "130.7390026",
            "place": "ひだまり荘",
            "num": 1,
            "thumb": "hidamari_01.jpg"
        }
    ],
    "ドージンワーク": [
        {
            "title": "ドージンワーク",
            "lat": "35.62982",
            "lng": "139.7942416",
            "place": "東京ビッグサイト",
            "num": 1,
            "thumb": "dojinwork.jpg"
        },
        {
            "title": "ドージンワーク",
            "lat": "35.7003743",
            "lng": "139.7716894",
            "place": "とらのあな秋葉原本店",
            "num": 1,
            "thumb": "dojinwork.jpg"
        },
        {
            "title": "ドージンワーク",
            "lat": "35.750197",
            "lng": "139.5668763",
            "place": "あらやしき公園",
            "num": 3,
            "thumb": "dojinwork.jpg"
        }
    ],
    "ひだまりスケッチ×365": [
        {
            "title": "ひだまりスケッチ×365",
            "num": 1,
            "thumb": "hidamari_02.jpg"
        }
    ],
    "けいおん！": [
        {
            "title": "けいおん！",
            "num": 1,
            "thumb": "ke-on_01.jpg"
        }
    ],
    "かなめも": [
        {
            "title": "かなめも",
            "lat": "35.7010273",
            "lng": "139.7661867",
            "place": "お茶の水公園",
            "num": 11,
            "thumb": "kanamemo.jpg"
        },
        {
            "title": "かなめも",
            "lat": "35.6980554",
            "lng": "139.7655203",
            "place": "ニコライ堂",
            "num": 3,
            "thumb": "kanamemo.jpg"
        },
        {
            "title": "かなめも",
            "lat": "35.699107",
            "lng": "139.765333",
            "place": "新お茶の水ビル",
            "num": 2,
            "thumb": "kanamemo.jpg"
        },
        {
            "title": "かなめも",
            "lat": "35.7013968",
            "lng": "139.7683213",
            "place": "明神男坂",
            "num": 2,
            "thumb": "kanamemo.jpg"
        },
        {
            "title": "かなめも",
            "lat": "35.7019218",
            "lng": "139.7678456",
            "place": "神田明神",
            "num": 5,
            "thumb": "kanamemo.jpg"
        },
        {
            "title": "かなめも",
            "lat": "35.6958027",
            "lng": "139.7594558",
            "place": "神保町 靖国通り",
            "num": 1,
            "thumb": "kanamemo.jpg"
        },
        {
            "title": "かなめも",
            "lat": "35.6993465",
            "lng": "139.7618075",
            "place": "駿台予備校2号館",
            "num": 3,
            "thumb": "kanamemo.jpg"
        },
        {
            "title": "かなめも",
            "lat": "35.7031378",
            "lng": "139.7566543",
            "place": "忠弥坂",
            "num": 2,
            "thumb": "kanamemo.jpg"
        },
        {
            "title": "かなめも",
            "lat": "35.710421017895484",
            "lng": "139.7658917180479",
            "place": "無縁坂",
            "num": 3,
            "thumb": "kanamemo.jpg"
        },
        {
            "title": "かなめも",
            "lat": "35.7023412",
            "lng": "139.7670718",
            "place": "宮本公園",
            "num": 12,
            "thumb": "kanamemo.jpg"
        },
        {
            "title": "かなめも",
            "lat": "35.69915733872181",
            "lng": "139.7653843702542",
            "place": "聖橋交差点",
            "num": 2,
            "thumb": "kanamemo.jpg"
        },
        {
            "title": "かなめも",
            "lat": "35.7008076",
            "lng": "139.7664557",
            "place": "湯島聖堂",
            "num": 1,
            "thumb": "kanamemo.jpg"
        },
        {
            "title": "かなめも",
            "lat": "35.7094568",
            "lng": "139.7738986",
            "place": "ABAB上野店",
            "num": 1,
            "thumb": "kanamemo.jpg"
        },
        {
            "title": "かなめも",
            "lat": "35.7044236",
            "lng": "139.7650682",
            "place": "湯島御霊社",
            "num": 2,
            "thumb": "kanamemo.jpg"
        },
        {
            "title": "かなめも",
            "lat": "35.7045074",
            "lng": "139.7652885",
            "place": "湯島2丁目付近",
            "num": 1,
            "thumb": "kanamemo.jpg"
        },
        {
            "title": "かなめも",
            "lat": "35.699817",
            "lng": "139.763619",
            "place": "JR御茶ノ水駅 御茶ノ水橋口",
            "num": 1,
            "thumb": "kanamemo.jpg"
        },
        {
            "title": "かなめも",
            "lat": "35.7123408",
            "lng": "139.7932751",
            "place": "フレッシュマート セキネ",
            "num": 1,
            "thumb": "kanamemo.jpg"
        },
        {
            "title": "かなめも",
            "lat": "35.705632",
            "lng": "139.765775",
            "place": "霊雲寺",
            "num": 3,
            "thumb": "kanamemo.jpg"
        },
        {
            "title": "かなめも",
            "lat": "35.7014611",
            "lng": "139.7663723",
            "place": "Ｕビル",
            "num": 1,
            "thumb": "kanamemo.jpg"
        },
        {
            "title": "かなめも",
            "lat": "35.707676",
            "lng": "139.76846",
            "place": "湯島天神女坂",
            "num": 1,
            "thumb": "kanamemo.jpg"
        },
        {
            "title": "かなめも",
            "lat": "35.7008753465",
            "lng": "139.764107358",
            "place": "東京医科歯科大前",
            "num": 10,
            "thumb": "kanamemo.jpg"
        },
        {
            "title": "かなめも",
            "lat": "35.6997635",
            "lng": "139.7655748",
            "place": "聖橋",
            "num": 2,
            "thumb": "kanamemo.jpg"
        },
        {
            "title": "かなめも",
            "lat": "35.70013969316",
            "lng": "139.7655517062",
            "place": "お茶の水交差点",
            "num": 1,
            "thumb": "kanamemo.jpg"
        },
        {
            "title": "かなめも",
            "lat": "35.6934499",
            "lng": "139.7498121",
            "place": "北の丸公園",
            "num": 3,
            "thumb": "kanamemo.jpg"
        },
        {
            "title": "かなめも",
            "lat": "35.7129416",
            "lng": "139.7237242",
            "place": "胸突坂",
            "num": 1,
            "thumb": "kanamemo.jpg"
        },
        {
            "title": "かなめも",
            "lat": "35.6987747",
            "lng": "139.7650165",
            "place": "新お茶の水ビル",
            "num": 1,
            "thumb": "kanamemo.jpg"
        },
        {
            "title": "かなめも",
            "lat": "35.6978221",
            "lng": "139.7660665",
            "place": "茗渓通り",
            "num": 2,
            "thumb": "kanamemo.jpg"
        },
        {
            "title": "かなめも",
            "lat": "35.666141",
            "lng": "139.702726",
            "place": "長泉寺",
            "num": 2,
            "thumb": "kanamemo.jpg"
        },
        {
            "title": "かなめも",
            "lat": "35.6944744",
            "lng": "139.7664125",
            "place": "ナビパーク神田駿河台第一P",
            "num": 1,
            "thumb": "kanamemo.jpg"
        },
        {
            "title": "かなめも",
            "lat": "35.7021299",
            "lng": "139.7608345",
            "place": "順天堂大学",
            "num": 1,
            "thumb": "kanamemo.jpg"
        },
        {
            "title": "かなめも",
            "lat": "35.696634",
            "lng": "139.7615103",
            "place": "明大通り",
            "num": 1,
            "thumb": "kanamemo.jpg"
        },
        {
            "title": "かなめも",
            "lat": "35.7060367",
            "lng": "139.7678123",
            "place": "実盛坂",
            "num": 1,
            "thumb": "kanamemo.jpg"
        }
    ],
    "GA 芸術科アートデザインクラス": [
        {
            "title": "GA 芸術科アートデザインクラス",
            "lat": "36.0785345",
            "lng": "136.2152499",
            "place": "福井県立美術館",
            "num": 1,
            "thumb": "ga.jpg"
        },
        {
            "title": "GA 芸術科アートデザインクラス",
            "lat": "36.038998",
            "lng": "136.234105",
            "place": "福井市立美術館",
            "num": 4,
            "thumb": "ga.jpg"
        },
        {
            "title": "GA 芸術科アートデザインクラス",
            "lat": "35.8718111",
            "lng": "139.9250426",
            "place": "流山おおたかの森駅",
            "num": 4,
            "thumb": "ga.jpg"
        },
        {
            "title": "GA 芸術科アートデザインクラス",
            "lat": "36.062402529574",
            "lng": "136.22315186171",
            "place": "福井駅西口",
            "num": 1,
            "thumb": "ga.jpg"
        },
        {
            "title": "GA 芸術科アートデザインクラス",
            "lat": "36.0686934",
            "lng": "136.1956953",
            "place": "彩井高等学校",
            "num": 4,
            "thumb": "ga.jpg"
        },
        {
            "title": "GA 芸術科アートデザインクラス",
            "lat": "36.039554",
            "lng": "136.230475",
            "place": "沢井画房",
            "num": 10,
            "thumb": "ga.jpg"
        },
        {
            "title": "GA 芸術科アートデザインクラス",
            "lat": "36.0940384",
            "lng": "136.301853",
            "place": "松岡駅",
            "num": 1,
            "thumb": "ga.jpg"
        },
        {
            "title": "GA 芸術科アートデザインクラス",
            "lat": "36.0981174",
            "lng": "136.3135818",
            "place": "八幡神社",
            "num": 1,
            "thumb": "ga.jpg"
        },
        {
            "title": "GA 芸術科アートデザインクラス",
            "lat": "35.6686861",
            "lng": "139.494306",
            "place": "サミットストア東府中店",
            "num": 1,
            "thumb": "ga.jpg"
        }
    ],
    "ひだまりスケッチ×☆☆☆": [
        {
            "title": "ひだまりスケッチ×☆☆☆",
            "lat": "35.6328964",
            "lng": "139.8803943",
            "place": "東京ディズニーランド",
            "num": 1,
            "thumb": "hidamari_03.jpg"
        }
    ],
    "けいおん!!": [
        {
            "title": "けいおん!!",
            "num": 1,
            "thumb": "ke-on_02.jpg"
        }
    ],
    "夢喰いメリー": [
        {
            "title": "夢喰いメリー",
            "lat": "35.311111",
            "lng": "139.487558",
            "place": "江ノ電江ノ島駅",
            "num": 4,
            "thumb": "yumekui.jpg"
        },
        {
            "title": "夢喰いメリー",
            "lat": "35.306668",
            "lng": "139.502115",
            "place": "鎌倉高校前駅踏切",
            "num": 2,
            "thumb": "yumekui.jpg"
        },
        {
            "title": "夢喰いメリー",
            "lat": "35.334578",
            "lng": "139.489347",
            "place": "イトーヨーカドー藤沢店付近",
            "num": 4,
            "thumb": "yumekui.jpg"
        },
        {
            "title": "夢喰いメリー",
            "lat": "37.109324",
            "lng": "138.254217",
            "place": "高田公園",
            "num": 3,
            "thumb": "yumekui.jpg"
        },
        {
            "title": "夢喰いメリー",
            "lat": "37.14966",
            "lng": "138.226067",
            "place": "お食事処・地魚料理 伊智",
            "num": 2,
            "thumb": "yumekui.jpg"
        },
        {
            "title": "夢喰いメリー",
            "lat": "35.3088493",
            "lng": "139.4777405",
            "place": "片瀬西浜海水浴場",
            "num": 2,
            "thumb": "yumekui.jpg"
        }
    ],
    "Aチャンネル": [
        {
            "title": "Aチャンネル",
            "lat": "35.691313",
            "lng": "139.447207",
            "place": "ワールドマーケット国立店前",
            "num": 5,
            "thumb": "achannel.jpg"
        },
        {
            "title": "Aチャンネル",
            "lat": "35.6927648",
            "lng": "139.44662",
            "place": "一橋大学西キャンパス 佐野書院前",
            "num": 15,
            "thumb": "achannel.jpg"
        },
        {
            "title": "Aチャンネル",
            "lat": "35.687082",
            "lng": "139.447738",
            "place": "京王線分倍河原駅 府中５号踏切",
            "num": 1,
            "thumb": "achannel.jpg"
        },
        {
            "title": "Aチャンネル",
            "lat": "35.687082",
            "lng": "139.447738",
            "place": "国分寺街道 交差点",
            "num": 1,
            "thumb": "achannel.jpg"
        },
        {
            "title": "Aチャンネル",
            "lat": "35.687082",
            "lng": "139.447738",
            "place": "石田歯科前 三叉路",
            "num": 1,
            "thumb": "achannel.jpg"
        },
        {
            "title": "Aチャンネル",
            "lat": "35.697473",
            "lng": "139.44647",
            "place": "Royal Host 国立駅前店前１",
            "num": 1,
            "thumb": "achannel.jpg"
        },
        {
            "title": "Aチャンネル",
            "lat": "35.697491",
            "lng": "139.446931",
            "place": "Royal Host 国立駅前店前２",
            "num": 1,
            "thumb": "achannel.jpg"
        },
        {
            "title": "Aチャンネル",
            "lat": "35.688734",
            "lng": "139.447218",
            "place": "国立市東4丁目歩道橋",
            "num": 2,
            "thumb": "achannel.jpg"
        },
        {
            "title": "Aチャンネル",
            "lat": "35.688281",
            "lng": "139.447349",
            "place": "葵ヶ丘高等学校前",
            "num": 4,
            "thumb": "achannel.jpg"
        },
        {
            "title": "Aチャンネル",
            "lat": "35.690694",
            "lng": "139.446711",
            "place": "ウェディングレストラン RUIDO",
            "num": 1,
            "thumb": "achannel.jpg"
        },
        {
            "title": "Aチャンネル",
            "lat": "35.696393",
            "lng": "139.446507",
            "place": "ジョージーズ 国立店前",
            "num": 1,
            "thumb": "achannel.jpg"
        },
        {
            "title": "Aチャンネル",
            "lat": "35.687110",
            "lng": "139.447389",
            "place": "ファミリーマート海田大学通り店前",
            "num": 3,
            "thumb": "achannel.jpg"
        },
        {
            "title": "Aチャンネル",
            "lat": "35.6868925",
            "lng": "139.4487336",
            "place": "ファミリーマート海田大学通り店前 路地",
            "num": 1,
            "thumb": "achannel.jpg"
        },
        {
            "title": "Aチャンネル",
            "lat": "35.6868723",
            "lng": "139.44884",
            "place": "ファミリーマート海田大学通り店前 路地2",
            "num": 6,
            "thumb": "achannel.jpg"
        },
        {
            "title": "Aチャンネル",
            "lat": "35.672315",
            "lng": "139.479954",
            "place": "京王線 府中駅ホーム",
            "num": 4,
            "thumb": "achannel.jpg"
        },
        {
            "title": "Aチャンネル",
            "lat": "35.678",
            "lng": "139.479667",
            "place": "マインマート前交差点",
            "num": 1,
            "thumb": "achannel.jpg"
        },
        {
            "title": "Aチャンネル",
            "lat": "35.696959",
            "lng": "139.470969",
            "place": "武蔵国分寺公園",
            "num": 1,
            "thumb": "achannel.jpg"
        },
        {
            "title": "Aチャンネル",
            "lat": "35.690696",
            "lng": "139.447086",
            "place": "桐朋学園東交差点",
            "num": 1,
            "thumb": "achannel.jpg"
        },
        {
            "title": "Aチャンネル",
            "lat": "35.69133",
            "lng": "139.446743",
            "place": "World Maket向かいの歩道",
            "num": 3,
            "thumb": "achannel.jpg"
        },
        {
            "title": "Aチャンネル",
            "lat": "35.691871",
            "lng": "139.446724",
            "place": "臼井医院周辺",
            "num": 2,
            "thumb": "achannel.jpg"
        },
        {
            "title": "Aチャンネル",
            "lat": "35.671478",
            "lng": "139.480759",
            "place": "くるる館内",
            "num": 8,
            "thumb": "achannel.jpg"
        },
        {
            "title": "Aチャンネル",
            "lat": "35.670759",
            "lng": "139.479294",
            "place": "伊勢丹・府中店 フォーリス前",
            "num": 1,
            "thumb": "achannel.jpg"
        },
        {
            "title": "Aチャンネル",
            "lat": "35.6709473",
            "lng": "139.4791199",
            "place": "伊勢丹・府中店 フォーリス前2",
            "num": 1,
            "thumb": "achannel.jpg"
        },
        {
            "title": "Aチャンネル",
            "lat": "35.6966574",
            "lng": "139.4469731",
            "place": "国立大学通り",
            "num": 6,
            "thumb": "achannel.jpg"
        },
        {
            "title": "Aチャンネル",
            "lat": "35.670162",
            "lng": "139.479209",
            "place": "大国魂神社前交差点",
            "num": 1,
            "thumb": "achannel.jpg"
        },
        {
            "title": "Aチャンネル",
            "lat": "35.317975",
            "lng": "139.550185",
            "place": "バーミアン国立駅前店付近",
            "num": 2,
            "thumb": "achannel.jpg"
        },
        {
            "title": "Aチャンネル",
            "lat": "35.317975",
            "lng": "139.550185",
            "place": "江ノ電 鎌倉駅ホーム",
            "num": 1,
            "thumb": "achannel.jpg"
        },
        {
            "title": "Aチャンネル",
            "lat": "35.31085888804145",
            "lng": "139.48961854255128",
            "place": "かたせ工房前 路面電車",
            "num": 1,
            "thumb": "achannel.jpg"
        },
        {
            "title": "Aチャンネル",
            "lat": "35.300766",
            "lng": "139.483188",
            "place": "江ノ電 江ノ島駅",
            "num": 2,
            "thumb": "achannel.jpg"
        },
        {
            "title": "Aチャンネル",
            "lat": "35.306877965629205",
            "lng": "139.48378443717957",
            "place": "江島神社御鎮座記念龍燈籠",
            "num": 1,
            "thumb": "achannel.jpg"
        },
        {
            "title": "Aチャンネル",
            "lat": "35.30042106729891",
            "lng": "139.4798916125818",
            "place": "江島神社 辺津宮前",
            "num": 1,
            "thumb": "achannel.jpg"
        },
        {
            "title": "Aチャンネル",
            "lat": "35.3003625450556",
            "lng": "139.4796136021614",
            "place": "江島神社 辺津宮",
            "num": 2,
            "thumb": "achannel.jpg"
        },
        {
            "title": "Aチャンネル",
            "lat": "35.299572",
            "lng": "139.480793",
            "place": "江ノ島中腹 展望台",
            "num": 1,
            "thumb": "achannel.jpg"
        },
        {
            "title": "Aチャンネル",
            "lat": "35.2996471",
            "lng": "139.4772566",
            "place": "江之島亭前",
            "num": 1,
            "thumb": "achannel.jpg"
        },
        {
            "title": "Aチャンネル",
            "lat": "35.2998567",
            "lng": "139.4786454",
            "place": "江の島展望灯台前",
            "num": 1,
            "thumb": "achannel.jpg"
        },
        {
            "title": "Aチャンネル",
            "lat": "35.29971568062001",
            "lng": "139.47868824005127",
            "place": "江の島展望灯台",
            "num": 2,
            "thumb": "achannel.jpg"
        },
        {
            "title": "Aチャンネル",
            "lat": "35.692698",
            "lng": "139.445719",
            "place": "佐野書院前",
            "num": 1,
            "thumb": "achannel.jpg"
        },
        {
            "title": "Aチャンネル",
            "lat": "35.671567",
            "lng": "139.4793",
            "place": "ビッグエコー府中駅前本店",
            "num": 1,
            "thumb": "achannel.jpg"
        },
        {
            "title": "Aチャンネル",
            "lat": "35.6709473",
            "lng": "139.4791199",
            "place": "三菱UFJ銀行 府中駅前支店",
            "num": 1,
            "thumb": "achannel.jpg"
        },
        {
            "title": "Aチャンネル",
            "lat": "35.670757",
            "lng": "139.4791071",
            "place": "COUNTER BAR AIR前",
            "num": 1,
            "thumb": "achannel.jpg"
        },
        {
            "title": "Aチャンネル",
            "lat": "35.6700956",
            "lng": "139.4792077",
            "place": "大国魂神社前",
            "num": 1,
            "thumb": "achannel.jpg"
        },
        {
            "title": "Aチャンネル",
            "lat": "35.699582",
            "lng": "139.480496",
            "place": "中央文化センター前 桜通り",
            "num": 1,
            "thumb": "achannel.jpg"
        },
        {
            "title": "Aチャンネル",
            "lat": "35.699582",
            "lng": "139.480496",
            "place": "国分寺駅南口",
            "num": 3,
            "thumb": "achannel.jpg"
        },
        {
            "title": "Aチャンネル",
            "lat": "35.6997716",
            "lng": "139.4794327",
            "place": "国分寺駅改札",
            "num": 3,
            "thumb": "achannel.jpg"
        },
        {
            "title": "Aチャンネル",
            "lat": "35.698438",
            "lng": "139.446212",
            "place": "JR国立駅南口交差点",
            "num": 2,
            "thumb": "achannel.jpg"
        },
        {
            "title": "Aチャンネル",
            "lat": "35.68852",
            "lng": "139.44802",
            "place": "国立高校脇の路地",
            "num": 3,
            "thumb": "achannel.jpg"
        },
        {
            "title": "Aチャンネル",
            "lat": "35.619112",
            "lng": "139.704994",
            "place": "武蔵小山 有明靴店付近",
            "num": 1,
            "thumb": "achannel.jpg"
        },
        {
            "title": "Aチャンネル",
            "lat": "35.616467",
            "lng": "139.708411",
            "place": "武蔵小山 洗濯丸付近",
            "num": 1,
            "thumb": "achannel.jpg"
        },
        {
            "title": "Aチャンネル",
            "lat": "35.617489",
            "lng": "139.707097",
            "place": "武蔵小山 さが美付近",
            "num": 1,
            "thumb": "achannel.jpg"
        },
        {
            "title": "Aチャンネル",
            "lat": "35.616874",
            "lng": "139.707835",
            "place": "武蔵小山 マツモトキヨシ前",
            "num": 1,
            "thumb": "achannel.jpg"
        },
        {
            "title": "Aチャンネル",
            "lat": "35.619602",
            "lng": "139.704396",
            "place": "武蔵小山 ゼイタク煎餅",
            "num": 1,
            "thumb": "achannel.jpg"
        },
        {
            "title": "Aチャンネル",
            "lat": "35.617188",
            "lng": "139.707381",
            "place": "武蔵小山 オメガ書店",
            "num": 1,
            "thumb": "achannel.jpg"
        },
        {
            "title": "Aチャンネル",
            "lat": "35.697769",
            "lng": "139.478087",
            "place": "南町三丁目交差点",
            "num": 1,
            "thumb": "achannel.jpg"
        },
        {
            "title": "Aチャンネル",
            "lat": "35.697221",
            "lng": "139.477422",
            "place": "南町三丁目交差点坂下",
            "num": 1,
            "thumb": "achannel.jpg"
        },
        {
            "title": "Aチャンネル",
            "lat": "35.708538",
            "lng": "139.666556",
            "place": "秋吉",
            "num": 2,
            "thumb": "achannel.jpg"
        },
        {
            "title": "Aチャンネル",
            "lat": "35.709686",
            "lng": "139.666719",
            "place": "ホットパワーズ",
            "num": 1,
            "thumb": "achannel.jpg"
        },
        {
            "title": "Aチャンネル",
            "lat": "35.713763",
            "lng": "139.634865",
            "place": "KOJIMA",
            "num": 5,
            "thumb": "achannel.jpg"
        },
        {
            "title": "Aチャンネル",
            "lat": "35.698249",
            "lng": "139.446175",
            "place": "国立駅南口バス停",
            "num": 1,
            "thumb": "achannel.jpg"
        },
        {
            "title": "Aチャンネル",
            "lat": "35.697569",
            "lng": "139.449699",
            "place": "カーブミラー 東1-14エリア",
            "num": 2,
            "thumb": "achannel.jpg"
        },
        {
            "title": "Aチャンネル",
            "lat": "35.692027",
            "lng": "139.446722",
            "place": "臼井医院前",
            "num": 1,
            "thumb": "achannel.jpg"
        },
        {
            "title": "Aチャンネル",
            "lat": "35.693696",
            "lng": "139.446816",
            "place": "一橋大学西校舎前",
            "num": 1,
            "thumb": "achannel.jpg"
        },
        {
            "title": "Aチャンネル",
            "lat": "35.696031",
            "lng": "139.446652",
            "place": "バーミヤン前",
            "num": 1,
            "thumb": "achannel.jpg"
        },
        {
            "title": "Aチャンネル",
            "lat": "35.696713",
            "lng": "139.446539",
            "place": "国立駅前郵便局前",
            "num": 1,
            "thumb": "achannel.jpg"
        },
        {
            "title": "Aチャンネル",
            "lat": "35.69189",
            "lng": "139.447148",
            "place": "臼井医院向かい",
            "num": 1,
            "thumb": "achannel.jpg"
        },
        {
            "title": "Aチャンネル",
            "lat": "35.697299",
            "lng": "139.446912",
            "place": "TSUTAYA前",
            "num": 1,
            "thumb": "achannel.jpg"
        },
        {
            "title": "Aチャンネル",
            "lat": "35.697796",
            "lng": "139.446453",
            "place": "auショップ前",
            "num": 2,
            "thumb": "achannel.jpg"
        },
        {
            "title": "Aチャンネル",
            "lat": "35.697942",
            "lng": "139.44968",
            "place": "東1-8エリア",
            "num": 4,
            "thumb": "achannel.jpg"
        },
        {
            "title": "Aチャンネル",
            "lat": "35.698301",
            "lng": "139.449667",
            "place": "東1-2エリア",
            "num": 1,
            "thumb": "achannel.jpg"
        },
        {
            "title": "Aチャンネル",
            "lat": "35.696827",
            "lng": "139.446977",
            "place": "モスバーガー 国立店前",
            "num": 2,
            "thumb": "achannel.jpg"
        },
        {
            "title": "Aチャンネル",
            "lat": "35.70081",
            "lng": "139.413398",
            "place": "立川高島屋",
            "num": 4,
            "thumb": "achannel.jpg"
        },
        {
            "title": "Aチャンネル",
            "lat": "35.66203",
            "lng": "139.413253",
            "place": "高幡不動駅",
            "num": 3,
            "thumb": "achannel.jpg"
        },
        {
            "title": "Aチャンネル",
            "lat": "35.6614382",
            "lng": "139.4133839",
            "place": "高幡不動駅南口",
            "num": 1,
            "thumb": "achannel.jpg"
        },
        {
            "title": "Aチャンネル",
            "lat": "35.662265",
            "lng": "139.409809",
            "place": "高幡不動尊",
            "num": 3,
            "thumb": "achannel.jpg"
        },
        {
            "title": "Aチャンネル",
            "lat": "35.6856612",
            "lng": "139.4415934",
            "place": "谷保第三公園",
            "num": 1,
            "thumb": "achannel.jpg"
        },
        {
            "title": "Aチャンネル",
            "lat": "35.3077721",
            "lng": "139.4871848",
            "place": "片瀬東浜海水浴場",
            "num": 11,
            "thumb": "achannel.jpg"
        }
    ],
    "キルミーベイベー": [
        {
            "title": "キルミーベイベー",
            "lat": "35.723097",
            "lng": "139.461087",
            "place": "西武国分寺線 鷹の台駅",
            "num": 1,
            "thumb": "kill_me.jpg"
        },
        {
            "title": "キルミーベイベー",
            "lat": "35.5833167",
            "lng": "139.461087",
            "place": "丸子橋",
            "num": 2,
            "thumb": "kill_me.jpg"
        }
    ],
    "あっちこっち": [
        {
            "title": "あっちこっち",
            "lat": "35.630141",
            "lng": "140.072912",
            "place": "ロイヤルホスト付近",
            "num": 5,
            "thumb": "achikochi.jpg"
        },
        {
            "title": "あっちこっち",
            "lat": "35.6279265",
            "lng": "140.0725561",
            "place": "稲毛海岸駅",
            "num": 19,
            "thumb": "achikochi.jpg"
        },
        {
            "title": "あっちこっち",
            "lat": "35.6293244",
            "lng": "140.0725561",
            "place": "稲毛海岸駅 東側高架下",
            "num": 3,
            "thumb": "achikochi.jpg"
        },
        {
            "title": "あっちこっち",
            "lat": "35.615642",
            "lng": "140.06390",
            "place": "稲毛海浜公園2",
            "num": 4,
            "thumb": "achikochi.jpg"
        },
        {
            "title": "あっちこっち",
            "lat": "35.615830",
            "lng": "140.063928",
            "place": "稲毛海浜公園 ベンチ",
            "num": 6,
            "thumb": "achikochi.jpg"
        },
        {
            "title": "あっちこっち",
            "lat": "35.628681",
            "lng": "140.073309",
            "place": "ケーキ屋 Hatch Potch",
            "num": 10,
            "thumb": "achikochi.jpg"
        },
        {
            "title": "あっちこっち",
            "lat": "35.6294572",
            "lng": "140.0717741",
            "place": "稲毛海岸駅西側ロータリー付近",
            "num": 1,
            "thumb": "achikochi.jpg"
        },
        {
            "title": "あっちこっち",
            "lat": "35.6277164",
            "lng": "140.074953",
            "place": "稲毛海岸駅東側 眼科前",
            "num": 1,
            "thumb": "achikochi.jpg"
        },
        {
            "title": "あっちこっち",
            "lat": "35.628284",
            "lng": "140.075615",
            "place": "イオンマリンピア専門店街 商管口",
            "num": 2,
            "thumb": "achikochi.jpg"
        },
        {
            "title": "あっちこっち",
            "lat": "35.6198725",
            "lng": "140.06562",
            "place": "千葉市立稲毛高等学校",
            "num": 2,
            "thumb": "achikochi.jpg"
        },
        {
            "title": "あっちこっち",
            "lat": "35.620234",
            "lng": "140.069592",
            "place": "千葉市立稲毛高等学校付近 交差点",
            "num": 1,
            "thumb": "achikochi.jpg"
        },
        {
            "title": "あっちこっち",
            "lat": "35.620710",
            "lng": "140.069103",
            "place": "千葉市立稲毛高等学校 正門",
            "num": 4,
            "thumb": "achikochi.jpg"
        },
        {
            "title": "あっちこっち",
            "lat": "35.790238",
            "lng": "139.2581087",
            "place": "青梅駅",
            "num": 7,
            "thumb": "achikochi.jpg"
        },
        {
            "title": "あっちこっち",
            "lat": "35.8137109",
            "lng": "139.1638839",
            "place": "川井駅",
            "num": 4,
            "thumb": "achikochi.jpg"
        },
        {
            "title": "あっちこっち",
            "lat": "35.8111382",
            "lng": "139.1648605",
            "place": "川井キャンプ場付近",
            "num": 3,
            "thumb": "achikochi.jpg"
        },
        {
            "title": "あっちこっち",
            "lat": "35.6275574",
            "lng": "140.0692062",
            "place": "ＮＴＴ高洲ビル前",
            "num": 7,
            "thumb": "achikochi.jpg"
        },
        {
            "title": "あっちこっち",
            "lat": "35.624515",
            "lng": "140.064987",
            "place": "高浜6-1交差点",
            "num": 4,
            "thumb": "achikochi.jpg"
        },
        {
            "title": "あっちこっち",
            "lat": "35.6357098",
            "lng": "140.0810561",
            "place": "浅間神社 鳥居前",
            "num": 1,
            "thumb": "achikochi.jpg"
        },
        {
            "title": "あっちこっち",
            "lat": "35.6360913",
            "lng": "140.0818898",
            "place": "浅間神社 内門前",
            "num": 4,
            "thumb": "achikochi.jpg"
        },
        {
            "title": "あっちこっち",
            "lat": "35.6363469",
            "lng": "140.0818083",
            "place": "浅間神社 本殿前",
            "num": 4,
            "thumb": "achikochi.jpg"
        },
        {
            "title": "あっちこっち",
            "lat": "35.6363469",
            "lng": "140.0818083",
            "place": "浅間神社 本殿前",
            "num": 1,
            "thumb": "achikochi.jpg"
        }
    ],
    "ひだまりスケッチ×ハニカム": [
        {
            "title": "ひだまりスケッチ×ハニカム",
            "lat": "43.207282",
            "lng": "140.99832",
            "place": "旧日本郵船",
            "num": 1,
            "thumb": "hidamari_04.jpg"
        },
        {
            "title": "ひだまりスケッチ×ハニカム",
            "lat": "43.1979638",
            "lng": "141.0031005",
            "place": "小樽運河",
            "num": 1,
            "thumb": "hidamari_04.jpg"
        },
        {
            "title": "ひだまりスケッチ×ハニカム",
            "lat": "43.1834647",
            "lng": "141.0238287",
            "place": "ウイングベイ小樽",
            "num": 1,
            "thumb": "hidamari_04.jpg"
        },
        {
            "title": "ひだまりスケッチ×ハニカム",
            "lat": "43.191311",
            "lng": "141.007433",
            "place": "ルタオ本店",
            "num": 1,
            "thumb": "hidamari_04.jpg"
        },
        {
            "title": "ひだまりスケッチ×ハニカム",
            "lat": "43.1906019",
            "lng": "141.007770",
            "place": "小樽オルゴール堂",
            "num": 1,
            "thumb": "hidamari_04.jpg"
        },
        {
            "title": "ひだまりスケッチ×ハニカム",
            "lat": "43.190736",
            "lng": "141.007316",
            "place": "ソフトクリーム店",
            "num": 1,
            "thumb": "hidamari_04.jpg"
        },
        {
            "title": "ひだまりスケッチ×ハニカム",
            "lat": "43.1965013",
            "lng": "141.0025481",
            "place": "小樽大正硝子館本店",
            "num": 1,
            "thumb": "hidamari_04.jpg"
        },
        {
            "title": "ひだまりスケッチ×ハニカム",
            "lat": "43.1918748",
            "lng": "141.0075668",
            "place": "六花亭小樽運河店前",
            "num": 1,
            "thumb": "hidamari_04.jpg"
        },
        {
            "title": "ひだまりスケッチ×ハニカム",
            "lat": "43.1942034",
            "lng": "141.0062927",
            "place": "おたる瑠璃工房前",
            "num": 1,
            "thumb": "hidamari_04.jpg"
        },
        {
            "title": "ひだまりスケッチ×ハニカム",
            "lat": "43.197433",
            "lng": "141.0029407",
            "place": "小樽出抜小路・火の見櫓",
            "num": 1,
            "thumb": "hidamari_04.jpg"
        },
        {
            "title": "ひだまりスケッチ×ハニカム",
            "lat": "42.5663395",
            "lng": "140.8211802",
            "place": "とうや湖ぐるっと彫刻公園",
            "num": 1,
            "thumb": "hidamari_04.jpg"
        },
        {
            "title": "ひだまりスケッチ×ハニカム",
            "lat": "42.56665687",
            "lng": "140.8212949",
            "place": "洞爺湖",
            "num": 1,
            "thumb": "hidamari_04.jpg"
        },
        {
            "title": "ひだまりスケッチ×ハニカム",
            "lat": "42.49196",
            "lng": "141.1418857",
            "place": "登別グランドホテル",
            "num": 1,
            "thumb": "hidamari_04.jpg"
        },
        {
            "title": "ひだまりスケッチ×ハニカム",
            "lat": "41.7737761",
            "lng": "140.72647425",
            "place": "JR函館駅",
            "num": 1,
            "thumb": "hidamari_04.jpg"
        },
        {
            "title": "ひだまりスケッチ×ハニカム",
            "lat": "41.7662938",
            "lng": "140.7157767",
            "place": "金森赤レンガ倉庫群",
            "num": 1,
            "thumb": "hidamari_04.jpg"
        },
        {
            "title": "ひだまりスケッチ×ハニカム",
            "lat": "41.765368",
            "lng": "140.716834",
            "place": "ザ・グラススタジオイン函館",
            "num": 1,
            "thumb": "hidamari_04.jpg"
        },
        {
            "title": "ひだまりスケッチ×ハニカム",
            "lat": "41.7650868",
            "lng": "140.7131156",
            "place": "八幡坂通",
            "num": 1,
            "thumb": "hidamari_04.jpg"
        },
        {
            "title": "ひだまりスケッチ×ハニカム",
            "lat": "41.7650242",
            "lng": "140.7089342",
            "place": "旧函館区公会堂",
            "num": 1,
            "thumb": "hidamari_04.jpg"
        },
        {
            "title": "ひだまりスケッチ×ハニカム",
            "lat": "41.7947611",
            "lng": "140.7540517",
            "place": "五稜郭タワー",
            "num": 1,
            "thumb": "hidamari_04.jpg"
        },
        {
            "title": "ひだまりスケッチ×ハニカム",
            "lat": "41.7593931",
            "lng": "140.7044114",
            "place": "函館山展望台",
            "num": 1,
            "thumb": "hidamari_04.jpg"
        },
        {
            "title": "ひだまりスケッチ×ハニカム",
            "lat": "42.4812593",
            "lng": "141.2472379",
            "place": "かに御殿",
            "num": 1,
            "thumb": "hidamari_04.jpg"
        },
        {
            "title": "ひだまりスケッチ×ハニカム",
            "lat": "42.916833",
            "lng": "141.844053",
            "place": "北海道箱根牧場",
            "num": 1,
            "thumb": "hidamari_04.jpg"
        },
        {
            "title": "ひだまりスケッチ×ハニカム",
            "lat": "41.7757043",
            "lng": "140.8158222",
            "place": "函館空港",
            "num": 1,
            "thumb": "hidamari_04.jpg"
        },
        {
            "title": "ひだまりスケッチ×ハニカム",
            "lat": "41.7725257",
            "lng": "140.7960781",
            "place": "湯元漁火館",
            "num": 1,
            "thumb": "hidamari_04.jpg"
        },
        {
            "title": "ひだまりスケッチ×ハニカム",
            "lat": "41.7743639",
            "lng": "140.7850372",
            "place": "割烹旅館 若松",
            "num": 1,
            "thumb": "hidamari_04.jpg"
        },
        {
            "title": "ひだまりスケッチ×ハニカム",
            "lat": "35.448085",
            "lng": "139.64453",
            "place": "Jack Cafe（ジャパンエクスプレスビル）",
            "num": 1,
            "thumb": "hidamari_04.jpg"
        },
        {
            "title": "ひだまりスケッチ×ハニカム",
            "lat": "35.4416881",
            "lng": "139.6509705",
            "place": "元町ショッピングストリート",
            "num": 1,
            "thumb": "hidamari_04.jpg"
        },
        {
            "title": "ひだまりスケッチ×ハニカム",
            "lat": "34.664823",
            "lng": "135.501652",
            "place": "大阪タカシマヤ",
            "num": 1,
            "thumb": "hidamari_04.jpg"
        },
        {
            "title": "ひだまりスケッチ×ハニカム",
            "lat": "43.5291728",
            "lng": "142.4650824",
            "place": "四季彩の丘",
            "num": 1,
            "thumb": "hidamari_04.jpg"
        },
        {
            "title": "ひだまりスケッチ×ハニカム",
            "lat": "35.2464498",
            "lng": "139.0508339",
            "place": "箱根登山電車 彫刻の森駅",
            "num": 1,
            "thumb": "hidamari_04.jpg"
        },
        {
            "title": "ひだまりスケッチ×ハニカム",
            "lat": "35.24537594593371",
            "lng": "139.05106365680695",
            "place": "彫刻の森美術館",
            "num": 1,
            "thumb": "hidamari_04.jpg"
        }
    ],
    "ゆゆ式": [
        {
            "title": "ゆゆ式",
            "lat": "35.737723",
            "lng": "139.902107",
            "place": "江戸川河川敷 国府台駅北側水門付近",
            "num": 3,
            "thumb": "yuyushiki.jpg"
        },
        {
            "title": "ゆゆ式",
            "lat": "35.738168",
            "lng": "139.902182",
            "place": "江戸川水門",
            "num": 1,
            "thumb": "yuyushiki.jpg"
        },
        {
            "title": "ゆゆ式",
            "lat": "35.738168",
            "lng": "139.902182",
            "place": "市川橋",
            "num": 2,
            "thumb": "yuyushiki.jpg"
        },
        {
            "title": "ゆゆ式",
            "lat": "35.70012",
            "lng": "139.637424",
            "place": "和菓子 福吉",
            "num": 4,
            "thumb": "yuyushiki.jpg"
        },
        {
            "title": "ゆゆ式",
            "lat": "33.595676",
            "lng": "130.330244",
            "place": "福岡女子高校",
            "num": 2,
            "thumb": "yuyushiki.jpg"
        },
        {
            "title": "ゆゆ式",
            "lat": "33.595733",
            "lng": "130.330222",
            "place": "福岡女子高校 正門",
            "num": 1,
            "thumb": "yuyushiki.jpg"
        },
        {
            "title": "ゆゆ式",
            "lat": "33.584469",
            "lng": "130.389084",
            "place": "ブックスキューブリックけやき通り店",
            "num": 4,
            "thumb": "yuyushiki.jpg"
        },
        {
            "title": "ゆゆ式",
            "lat": "35.740746",
            "lng": "139.616958",
            "place": "西武池袋線練馬高野台駅北口",
            "num": 7,
            "thumb": "yuyushiki.jpg"
        },
        {
            "title": "ゆゆ式",
            "lat": "35.659711",
            "lng": "139.700152",
            "place": "SHIBUYA109",
            "num": 1,
            "thumb": "yuyushiki.jpg"
        },
        {
            "title": "ゆゆ式",
            "lat": "35.659044",
            "lng": "139.700603",
            "place": "渋谷駅ハチ公口",
            "num": 2,
            "thumb": "yuyushiki.jpg"
        },
        {
            "title": "ゆゆ式",
            "lat": "35.708969",
            "lng": "139.507892",
            "place": "小金井街道 樋口ビル",
            "num": 2,
            "thumb": "yuyushiki.jpg"
        },
        {
            "title": "ゆゆ式",
            "lat": "35.70802",
            "lng": "139.508018",
            "place": "小金井街道 パティスリー メリクリ",
            "num": 1,
            "thumb": "yuyushiki.jpg"
        },
        {
            "title": "ゆゆ式",
            "lat": "35.706909",
            "lng": "139.508085",
            "place": "小金井街道 フラッツ小金井前",
            "num": 1,
            "thumb": "yuyushiki.jpg"
        },
        {
            "title": "ゆゆ式",
            "lat": "35.704051",
            "lng": "139.613517",
            "place": "ローソン南荻窪4丁目店",
            "num": 2,
            "thumb": "yuyushiki.jpg"
        },
        {
            "title": "ゆゆ式",
            "lat": "35.320699",
            "lng": "139.470995",
            "place": "小田急江ノ島線 鵠沼海岸駅",
            "num": 1,
            "thumb": "yuyushiki.jpg"
        },
        {
            "title": "ゆゆ式",
            "lat": "35.320575",
            "lng": "139.471036",
            "place": "小田急江ノ島線 鵠沼海岸駅改札前",
            "num": 1,
            "thumb": "yuyushiki.jpg"
        },
        {
            "title": "ゆゆ式",
            "lat": "35.320575",
            "lng": "139.471036",
            "place": "鵠沼海岸道中 交差点",
            "num": 2,
            "thumb": "yuyushiki.jpg"
        },
        {
            "title": "ゆゆ式",
            "lat": "35.317255",
            "lng": "139.47096",
            "place": "鵠沼海岸道中 地下道入口",
            "num": 2,
            "thumb": "yuyushiki.jpg"
        },
        {
            "title": "ゆゆ式",
            "lat": "35.316911",
            "lng": "139.47096",
            "place": "鵠沼海岸道中 地下道",
            "num": 2,
            "thumb": "yuyushiki.jpg"
        },
        {
            "title": "ゆゆ式",
            "lat": "35.316911",
            "lng": "139.47096",
            "place": "鵠沼海岸入口",
            "num": 1,
            "thumb": "yuyushiki.jpg"
        },
        {
            "title": "ゆゆ式",
            "lat": "35.315014",
            "lng": "139.4709449",
            "place": "鵠沼海岸",
            "num": 1,
            "thumb": "yuyushiki.jpg"
        }
    ],
    "きんいろモザイク": [
        {
            "title": "きんいろモザイク",
            "num": 1,
            "thumb": "kinmoza_01.jpg"
        }
    ],
    "恋愛ラボ": [
        {
            "title": "恋愛ラボ",
            "num": 1,
            "thumb": "lovelab.jpg"
        }
    ],
    "桜Trick": [
        {
            "title": "桜Trick",
            "num": 1,
            "thumb": "sakura_trick.jpg"
        }
    ],
    "ご注文はうさぎですか?": [
        {
            "title": "ご注文はうさぎですか?",
            "num": 1,
            "thumb": "gochiusa_01.jpg"
        }
    ],
    "ハナヤマタ": [
        {
            "title": "ハナヤマタ",
            "num": 1,
            "thumb": "hanayamata.jpg"
        }
    ],
    "幸腹グラフィティ": [
        {
            "title": "幸腹グラフィティ",
            "num": 1,
            "thumb": "koufuku.jpg"
        }
    ],
    "レーカン！": [
        {
            "title": "レーカン！",
            "lat": "35.8426636",
            "lng": "139.7989024",
            "place": "松原団地西口公園",
            "num": 2,
            "thumb": "re-kan.jpg"
        }
    ],
    "魔法少女まどか☆マギカ": [
        {
            "title": "魔法少女まどか☆マギカ",
            "num": 1,
            "thumb": "madomagi.jpg"
        }
    ],
    "アルドノア・ゼロ": [
        {
            "title": "アルドノア・ゼロ",
            "num": 1,
            "thumb": "aldnoahzero.jpg"
        }
    ],
    "ハロー!!きんいろモザイク": [
        {
            "title": "ハロー!!きんいろモザイク",
            "num": 1,
            "thumb": "kinmoza_02.jpg"
        }
    ],
    "わかば＊ガール": [
        {
            "title": "わかば＊ガール",
            "num": 1,
            "thumb": "wakaba.jpg"
        }
    ],
    "がっこうぐらし!": [
        {
            "title": "がっこうぐらし!",
            "num": 1,
            "thumb": "gakko_gurashi.jpg"
        }
    ],
    "城下町のダンデライオン": [
        {
            "title": "城下町のダンデライオン",
            "num": 1,
            "thumb": "dandelion.jpg"
        }
    ],
    "ご注文はうさぎですか??": [
        {
            "title": "ご注文はうさぎですか??",
            "num": 1,
            "thumb": "gochiusa_02.jpg"
        }
    ],
    "小森さんは断れない!": [
        {
            "title": "小森さんは断れない!",
            "num": 1,
            "thumb": "komori_san.jpg"
        }
    ],
    "大家さんは思春期!": [
        {
            "title": "大家さんは思春期!",
            "num": 1,
            "thumb": "ohya_san.jpg"
        }
    ],
    "あんハピ♪": [
        {
            "title": "あんハピ♪",
            "num": 1,
            "thumb": "unhappy.jpg"
        }
    ],
    "サクラクエスト": [
        {
            "title": "サクラクエスト",
            "num": 1,
            "thumb": "sakura_quest.jpg"
        }
    ],
    "三者三葉": [
        {
            "title": "三者三葉",
            "num": 1,
            "thumb": "sansya.jpg"
        }
    ],
    "NEW GAME!": [
        {
            "title": "NEW GAME!",
            "lat": "35.704696",
            "lng": "139.6362975",
            "place": "JR阿佐ヶ谷駅南口",
            "num": 3,
            "thumb": "newgame_01.jpg"
        },
        {
            "title": "NEW GAME!",
            "lat": "35.704872",
            "lng": "139.635859",
            "place": "JR阿佐ヶ谷駅",
            "num": 8,
            "thumb": "newgame_01.jpg"
        },
        {
            "title": "NEW GAME!",
            "lat": "35.6580954",
            "lng": "139.5752621",
            "place": "つつじヶ丘駅",
            "num": 1,
            "thumb": "newgame_01.jpg"
        },
        {
            "title": "NEW GAME!",
            "lat": "35.649876",
            "lng": "139.55148",
            "place": "布田駅",
            "num": 1,
            "thumb": "newgame_01.jpg"
        },
        {
            "title": "NEW GAME!",
            "lat": "35.649876",
            "lng": "139.55148",
            "place": "(株)イーグルジャンプ",
            "num": 22,
            "thumb": "newgame_01.jpg"
        },
        {
            "title": "NEW GAME!",
            "lat": "35.6900527",
            "lng": "139.7058025",
            "place": "新宿バルト9",
            "num": 21,
            "thumb": "newgame_01.jpg"
        },
        {
            "title": "NEW GAME!",
            "lat": "35.7051183",
            "lng": "139.6359242",
            "place": "クリスピークリームドーナツディラ 阿佐ヶ谷店",
            "num": 3,
            "thumb": "newgame_01.jpg"
        },
        {
            "title": "NEW GAME!",
            "lat": "35.6472525",
            "lng": "140.033594",
            "place": "幕張メッセ 国際展示場1-8ホール",
            "num": 9,
            "thumb": "newgame_01.jpg"
        },
        {
            "title": "NEW GAME!",
            "lat": "35.6897063",
            "lng": "139.6974291",
            "place": "ヨドバシカメラ 新宿西口本店",
            "num": 25,
            "thumb": "newgame_01.jpg"
        },
        {
            "title": "NEW GAME!",
            "lat": "35.6725785",
            "lng": "139.5340531",
            "place": "榛沢橋",
            "num": 3,
            "thumb": "newgame_01.jpg"
        },
        {
            "title": "NEW GAME!",
            "lat": "35.6739055",
            "lng": "139.5327669",
            "place": "野川沿道",
            "num": 1,
            "thumb": "newgame_01.jpg"
        },
        {
            "title": "NEW GAME!",
            "lat": "35.6995425",
            "lng": "139.6377754",
            "place": "南阿佐谷すずらん通り商店街",
            "num": 9,
            "thumb": "newgame_01.jpg"
        },
        {
            "title": "NEW GAME!",
            "lat": "35.7038452",
            "lng": "139.6369032",
            "place": "築地日本海阿佐ヶ谷店",
            "num": 18,
            "thumb": "newgame_01.jpg"
        },
        {
            "title": "NEW GAME!",
            "lat": "35.7055762",
            "lng": "139.6483116",
            "place": "Bar 私",
            "num": 3,
            "thumb": "newgame_01.jpg"
        },
        {
            "title": "NEW GAME!",
            "lat": "35.7039902",
            "lng": "139.6363933",
            "place": "プラウド阿佐ヶ谷",
            "num": 1,
            "thumb": "newgame_01.jpg"
        },
        {
            "title": "NEW GAME!",
            "lat": "35.702833526060665",
            "lng": "139.6360178",
            "place": "細田工務店 杉並リボン館",
            "num": 1,
            "thumb": "newgame_01.jpg"
        },
        {
            "title": "NEW GAME!",
            "lat": "35.702833526060665",
            "lng": "139.6360178",
            "place": "市川龍清堂",
            "num": 1,
            "thumb": "newgame_01.jpg"
        },
        {
            "title": "NEW GAME!",
            "lat": "35.702833526060665",
            "lng": "139.6360178",
            "place": "リサイクルブティックABC阿佐谷南店",
            "num": 1,
            "thumb": "newgame_01.jpg"
        },
        {
            "title": "NEW GAME!",
            "lat": "35.7019321",
            "lng": "139.6362601",
            "place": "阿佐谷南１丁目周辺",
            "num": 3,
            "thumb": "newgame_01.jpg"
        },
        {
            "title": "NEW GAME!",
            "lat": "35.702833526060665",
            "lng": "139.6360178",
            "place": "タナカ産業",
            "num": 2,
            "thumb": "newgame_01.jpg"
        },
        {
            "title": "NEW GAME!",
            "lat": "35.7054067",
            "lng": "139.6658254",
            "place": "中野駅",
            "num": 1,
            "thumb": "newgame_01.jpg"
        },
        {
            "title": "NEW GAME!",
            "lat": "35.672374",
            "lng": "139.534219",
            "place": "榛沢橋付近",
            "num": 3,
            "thumb": "newgame_01.jpg"
        },
        {
            "title": "NEW GAME!",
            "lat": "35.7019349",
            "lng": "139.6359573",
            "place": "らーめん番長 阿佐ヶ谷店",
            "num": 1,
            "thumb": "newgame_01.jpg"
        },
        {
            "title": "NEW GAME!",
            "lat": "35.6690355",
            "lng": "139.6131128",
            "place": "hair salon Covo前",
            "num": 3,
            "thumb": "newgame_01.jpg"
        },
        {
            "title": "NEW GAME!",
            "lat": "35.702122",
            "lng": "139.63591",
            "place": "MORITA BUILDING 2前",
            "num": 1,
            "thumb": "newgame_01.jpg"
        },
        {
            "title": "NEW GAME!",
            "lat": "35.6987263",
            "lng": "139.6376225",
            "place": "阿佐谷モト・ルーム前",
            "num": 1,
            "thumb": "newgame_01.jpg"
        },
        {
            "title": "NEW GAME!",
            "lat": "35.702121",
            "lng": "139.6359073",
            "place": "村 阿佐ヶ谷店",
            "num": 1,
            "thumb": "newgame_01.jpg"
        },
        {
            "title": "NEW GAME!",
            "lat": "35.7025279",
            "lng": "139.6361233",
            "place": "ファミリーマート阿佐谷南三丁目店",
            "num": 3,
            "thumb": "newgame_01.jpg"
        },
        {
            "title": "NEW GAME!",
            "lat": "35.4659843",
            "lng": "139.6171541",
            "place": "SPA EAS",
            "num": 3,
            "thumb": "newgame_01.jpg"
        },
        {
            "title": "NEW GAME!",
            "lat": "35.7019321",
            "lng": "139.6362601",
            "place": "ヨドバシカメラ マルチメディアAkiba",
            "num": 17,
            "thumb": "newgame_01.jpg"
        },
        {
            "title": "NEW GAME!",
            "lat": "35.7004459",
            "lng": "139.6359268",
            "place": "ローソン 杉並区役所前店",
            "num": 2,
            "thumb": "newgame_01.jpg"
        },
        {
            "title": "NEW GAME!",
            "lat": "35.7047926",
            "lng": "139.6368606",
            "place": "ランドエイトビル前",
            "num": 1,
            "thumb": "newgame_01.jpg"
        },
        {
            "title": "NEW GAME!",
            "lat": "35.7001176",
            "lng": "139.6358057",
            "place": "杉並区立阿佐ケ谷中学校前",
            "num": 8,
            "thumb": "newgame_01.jpg"
        },
        {
            "title": "NEW GAME!",
            "lat": "35.6987936",
            "lng": "139.6378712",
            "place": "つけ麺めん屋桔梗 南阿佐谷店",
            "num": 1,
            "thumb": "newgame_01.jpg"
        },
        {
            "title": "NEW GAME!",
            "lat": "35.6657706",
            "lng": "139.7739453",
            "place": "報道健保築地健診プラザ",
            "num": 15,
            "thumb": "newgame_01.jpg"
        },
        {
            "title": "NEW GAME!",
            "lat": "35.6665699",
            "lng": "139.7743713",
            "place": "パークホームズ築地グリーンサイド",
            "num": 4,
            "thumb": "newgame_01.jpg"
        },
        {
            "title": "NEW GAME!",
            "lat": "35.6944035",
            "lng": "139.4454577",
            "place": "一橋大学",
            "num": 4,
            "thumb": "newgame_01.jpg"
        },
        {
            "title": "NEW GAME!",
            "lat": "35.704751",
            "lng": "139.618339",
            "place": "東京荻窪天然温泉 なごみの湯",
            "num": 11,
            "thumb": "newgame_01.jpg"
        },
        {
            "title": "NEW GAME!",
            "lat": "35.7082711",
            "lng": "139.6496874",
            "place": "フロレスタ高円寺店",
            "num": 1,
            "thumb": "newgame_01.jpg"
        },
        {
            "title": "NEW GAME!",
            "lat": "35.7050137",
            "lng": "139.6363245",
            "place": "NEWDAYS Dila 阿佐ヶ谷店",
            "num": 1,
            "thumb": "newgame_01.jpg"
        },
        {
            "title": "NEW GAME!",
            "lat": "35.6948756",
            "lng": "139.4453856",
            "place": "どらっぐぱぱす 新江古田駅前店",
            "num": 7,
            "thumb": "newgame_01.jpg"
        },
        {
            "title": "NEW GAME!",
            "lat": "43.959721",
            "lng": "143.532556",
            "place": "生野駅",
            "num": 4,
            "thumb": "newgame_01.jpg"
        },
        {
            "title": "NEW GAME!",
            "lat": "35.6917911",
            "lng": "139.7010119",
            "place": "新宿駅東口",
            "num": 11,
            "thumb": "newgame_01.jpg"
        },
        {
            "title": "NEW GAME!",
            "lat": "35.6940549",
            "lng": "139.7014356",
            "place": "珈琲茶館集 新宿店",
            "num": 15,
            "thumb": "newgame_01.jpg"
        },
        {
            "title": "NEW GAME!",
            "lat": "35.695814",
            "lng": "139.829045",
            "place": "サンストリート亀戸",
            "num": 2,
            "thumb": "newgame_01.jpg"
        },
        {
            "title": "NEW GAME!",
            "lat": "35.6917911",
            "lng": "139.7010119",
            "place": "サンシャイン クルーズ・クルーズ",
            "num": 51,
            "thumb": "newgame_01.jpg"
        },
        {
            "title": "NEW GAME!",
            "lat": "35.6917911",
            "lng": "139.7010119",
            "place": "サンシャインシティ アルパ",
            "num": 15,
            "thumb": "newgame_01.jpg"
        },
        {
            "title": "NEW GAME!",
            "lat": "42.841152",
            "lng": "140.6223693",
            "place": "ニセコグランドホテル",
            "num": 20,
            "thumb": "newgame_01.jpg"
        },
        {
            "title": "NEW GAME!",
            "lat": "42.902208",
            "lng": "140.752225",
            "place": "大衆居酒屋マルキュー商店",
            "num": 8,
            "thumb": "newgame_01.jpg"
        },
        {
            "title": "NEW GAME!",
            "lat": "42.8780002",
            "lng": "140.6756672",
            "place": "ニセコ花園第２クワッド",
            "num": 5,
            "thumb": "newgame_01.jpg"
        }
    ],
    "ステラのまほう": [
        {
            "title": "ステラのまほう",
            "num": 1,
            "thumb": "sutera.jpg"
        }
    ],
    "うらら迷路帖": [
        {
            "title": "うらら迷路帖",
            "num": 1,
            "thumb": "urara.jpg"
        }
    ],
    "NEW GAME!!": [
        {
            "title": "NEW GAME!!",
            "lat": "35.6917911",
            "lng": "139.7010119",
            "place": "新宿駅東口",
            "num": 4,
            "thumb": "newgame_02.jpg"
        },
        {
            "title": "NEW GAME!!",
            "lat": "35.649876",
            "lng": "139.55148",
            "place": "(株)イーグルジャンプ",
            "num": 23,
            "thumb": "newgame_02.jpg"
        },
        {
            "title": "NEW GAME!!",
            "lat": "35.6534638",
            "lng": "139.5623718",
            "place": "馬橋",
            "num": 1,
            "thumb": "newgame_02.jpg"
        },
        {
            "title": "NEW GAME!!",
            "lat": "35.6590442",
            "lng": "139.7008593",
            "place": "渋谷駅ハチ公口側",
            "num": 1,
            "thumb": "newgame_02.jpg"
        },
        {
            "title": "NEW GAME!!",
            "lat": "35.65928",
            "lng": "139.699871",
            "place": "ジョナサン・渋谷桜丘店",
            "num": 40,
            "thumb": "newgame_02.jpg"
        },
        {
            "title": "NEW GAME!!",
            "lat": "35.697835",
            "lng": "139.655789",
            "place": "蚕糸の森公園",
            "num": 54,
            "thumb": "newgame_02.jpg"
        },
        {
            "title": "NEW GAME!!",
            "lat": "35.704696",
            "lng": "139.6362975",
            "place": "JR阿佐ヶ谷駅南口",
            "num": 1,
            "thumb": "newgame_02.jpg"
        },
        {
            "title": "NEW GAME!!",
            "lat": "35.704872",
            "lng": "139.635859",
            "place": "JR阿佐ヶ谷駅",
            "num": 1,
            "thumb": "newgame_02.jpg"
        },
        {
            "title": "NEW GAME!!",
            "lat": "35.6595584",
            "lng": "139.7008932",
            "place": "渋谷駅周辺",
            "num": 15,
            "thumb": "newgame_02.jpg"
        },
        {
            "title": "NEW GAME!!",
            "lat": "35.6995425",
            "lng": "139.6377754",
            "place": "南阿佐谷すずらん通り商店街",
            "num": 7,
            "thumb": "newgame_02.jpg"
        },
        {
            "title": "NEW GAME!!",
            "lat": "35.6650434",
            "lng": "139.5444345",
            "place": "野川沿道",
            "num": 1,
            "thumb": "newgame_02.jpg"
        },
        {
            "title": "NEW GAME!!",
            "lat": "35.7021325",
            "lng": "139.6362908",
            "place": "JAZZ CAFE MISTY SWEETS",
            "num": 39,
            "thumb": "newgame_02.jpg"
        },
        {
            "title": "NEW GAME!!",
            "lat": "35.6943135",
            "lng": "139.4439865",
            "place": "一橋大学附属図書館",
            "num": 34,
            "thumb": "newgame_02.jpg"
        },
        {
            "title": "NEW GAME!!",
            "lat": "35.6948756",
            "lng": "139.4453856",
            "place": "兼松講堂",
            "num": 2,
            "thumb": "newgame_02.jpg"
        },
        {
            "title": "NEW GAME!!",
            "lat": "35.702592501708345",
            "lng": "139.75498967242197",
            "place": "東京ドームシティ MEETS PORT",
            "num": 1,
            "thumb": "newgame_02.jpg"
        },
        {
            "title": "NEW GAME!!",
            "lat": "35.70324",
            "lng": "139.7540179",
            "place": "東京ドームシティ付近",
            "num": 12,
            "thumb": "newgame_02.jpg"
        },
        {
            "title": "NEW GAME!!",
            "lat": "35.703885",
            "lng": "139.754568",
            "place": "東京ドームシティホール",
            "num": 24,
            "thumb": "newgame_02.jpg"
        },
        {
            "title": "NEW GAME!!",
            "lat": "35.6990033",
            "lng": "139.7705551",
            "place": "秋葉原Hey前",
            "num": 3,
            "thumb": "newgame_02.jpg"
        },
        {
            "title": "NEW GAME!!",
            "lat": "35.6690796",
            "lng": "139.7003031",
            "place": "代々木公園原宿門 時計塔前",
            "num": 11,
            "thumb": "newgame_02.jpg"
        },
        {
            "title": "NEW GAME!!",
            "lat": "35.6990033",
            "lng": "139.7705551",
            "place": "BONDI CAFE YOYOGI BEACH PARK",
            "num": 61,
            "thumb": "newgame_02.jpg"
        },
        {
            "title": "NEW GAME!!",
            "lat": "35.7302621",
            "lng": "139.8199807",
            "place": "十一屋",
            "num": 1,
            "thumb": "newgame_02.jpg"
        },
        {
            "title": "NEW GAME!!",
            "lat": "35.6999823",
            "lng": "139.6354813",
            "place": "デニーズ 南阿佐谷店",
            "num": 5,
            "thumb": "newgame_02.jpg"
        },
        {
            "title": "NEW GAME!!",
            "lat": "35.6996694",
            "lng": "139.6354848",
            "place": "中杉通り交差点前",
            "num": 1,
            "thumb": "newgame_02.jpg"
        },
        {
            "title": "NEW GAME!!",
            "lat": "35.7046524",
            "lng": "139.6365523",
            "place": "阿佐ヶ谷駅前",
            "num": 2,
            "thumb": "newgame_02.jpg"
        },
        {
            "title": "NEW GAME!!",
            "lat": "35.7018078",
            "lng": "139.6359844",
            "place": "キクスイホームズ中杉通り店前",
            "num": 9,
            "thumb": "newgame_02.jpg"
        },
        {
            "title": "NEW GAME!!",
            "lat": "35.7037097",
            "lng": "139.636385",
            "place": "TSUTAYA 阿佐ヶ谷店",
            "num": 10,
            "thumb": "newgame_02.jpg"
        },
        {
            "title": "NEW GAME!!",
            "lat": "35.6988455",
            "lng": "139.636502",
            "place": "第1DMJビル",
            "num": 1,
            "thumb": "newgame_02.jpg"
        },
        {
            "title": "NEW GAME!!",
            "lat": "35.698767",
            "lng": "139.6369788",
            "place": "ミカドスポーツ前",
            "num": 7,
            "thumb": "newgame_02.jpg"
        },
        {
            "title": "NEW GAME!!",
            "lat": "35.6987154",
            "lng": "139.6371726",
            "place": "クリーニング半田屋前",
            "num": 4,
            "thumb": "newgame_02.jpg"
        },
        {
            "title": "NEW GAME!!",
            "lat": "35.6991505",
            "lng": "139.6365899",
            "place": "杉並区役所付近",
            "num": 4,
            "thumb": "newgame_02.jpg"
        },
        {
            "title": "NEW GAME!!",
            "lat": "35.7018154",
            "lng": "139.6366006",
            "place": "阿佐ヶ谷パールセンター商店街",
            "num": 2,
            "thumb": "newgame_02.jpg"
        },
        {
            "title": "NEW GAME!!",
            "lat": "35.699746",
            "lng": "139.637538",
            "place": "阿佐ヶ谷 美容室 hairmake Santie",
            "num": 2,
            "thumb": "newgame_02.jpg"
        },
        {
            "title": "NEW GAME!!",
            "lat": "35.6992605",
            "lng": "139.6379592",
            "place": "すずらん通り商店街路地",
            "num": 8,
            "thumb": "newgame_02.jpg"
        },
        {
            "title": "NEW GAME!!",
            "lat": "35.7065945",
            "lng": "139.7533713",
            "place": "東京ドームシティアトラクションズ",
            "num": 85,
            "thumb": "newgame_02.jpg"
        },
        {
            "title": "NEW GAME!!",
            "lat": "35.7005247",
            "lng": "139.7725077",
            "place": "秋葉原UDX",
            "num": 8,
            "thumb": "newgame_02.jpg"
        },
        {
            "title": "NEW GAME!!",
            "lat": "35.7009606",
            "lng": "139.7727894",
            "place": "秋葉原UDXシアター",
            "num": 51,
            "thumb": "newgame_02.jpg"
        },
        {
            "title": "NEW GAME!!",
            "lat": "35.7038452",
            "lng": "139.6369032",
            "place": "築地日本海阿佐ヶ谷店",
            "num": 29,
            "thumb": "newgame_02.jpg"
        },
        {
            "title": "NEW GAME!!",
            "lat": "35.7038917",
            "lng": "139.6369765",
            "place": "築地日本海付近",
            "num": 26,
            "thumb": "newgame_02.jpg"
        },
        {
            "title": "NEW GAME!!",
            "lat": "139.7676181",
            "lng": "35.5446693",
            "place": "羽田空港国際線ターミナル 出発ロビー",
            "num": 53,
            "thumb": "newgame_02.jpg"
        },
        {
            "title": "NEW GAME!!",
            "lat": "35.5453634",
            "lng": "139.7698742",
            "place": "羽田空港 国際線旅客ターミナル 展望台",
            "num": 12,
            "thumb": "newgame_02.jpg"
        },
        {
            "title": "NEW GAME!!",
            "lat": "35.6897063",
            "lng": "139.6974291",
            "place": "ヨドバシカメラ 新宿西口本店",
            "num": 11,
            "thumb": "newgame_02.jpg"
        }
    ],
    "ブレンド・S": [
        {
            "title": "ブレンド・S",
            "num": 1,
            "thumb": "brend_s.jpg"
        }
    ],
    "こみっくがーるず": [
        {
            "title": "こみっくがーるず",
            "lat": "37.0686645",
            "lng": "140.1855981",
            "place": "福島県境 道路標識",
            "num": 4,
            "thumb": "comicgirls.jpg"
        },
        {
            "title": "こみっくがーるず",
            "lat": "37.047277",
            "lng": "140.2280589",
            "place": "白河神社",
            "num": 7,
            "thumb": "comicgirls.jpg"
        },
        {
            "title": "こみっくがーるず",
            "lat": "35.7029551",
            "lng": "139.751263",
            "place": "芳文社",
            "num": 11,
            "thumb": "comicgirls.jpg"
        },
        {
            "title": "こみっくがーるず",
            "lat": "35.7099719",
            "lng": "139.7545171",
            "place": "清和公園前",
            "num": 13,
            "thumb": "comicgirls.jpg"
        },
        {
            "title": "こみっくがーるず",
            "lat": "35.7099719",
            "lng": "139.7545171",
            "place": "東北新幹線 新白河駅",
            "num": 3,
            "thumb": "comicgirls.jpg"
        },
        {
            "title": "こみっくがーるず",
            "lat": "35.7116528",
            "lng": "139.7539904",
            "place": "女子まんが家寮 道中",
            "num": 1,
            "thumb": "comicgirls.jpg"
        },
        {
            "title": "こみっくがーるず",
            "lat": "35.711793",
            "lng": "139.754207",
            "place": "女子まんが家寮 道中２",
            "num": 1,
            "thumb": "comicgirls.jpg"
        },
        {
            "title": "こみっくがーるず",
            "lat": "35.7119861",
            "lng": "139.7541914",
            "place": "女子まんが家寮 道中３",
            "num": 1,
            "thumb": "comicgirls.jpg"
        },
        {
            "title": "こみっくがーるず",
            "lat": "35.712041",
            "lng": "139.754181",
            "place": "女子まんが家寮 道中４",
            "num": 2,
            "thumb": "comicgirls.jpg"
        },
        {
            "title": "こみっくがーるず",
            "lat": "35.7121059",
            "lng": "139.7549715",
            "place": "女子まんが家寮 道中５",
            "num": 1,
            "thumb": "comicgirls.jpg"
        },
        {
            "title": "こみっくがーるず",
            "lat": "35.7133087",
            "lng": "139.7557091",
            "place": "女子まんが家寮 道中６",
            "num": 2,
            "thumb": "comicgirls.jpg"
        },
        {
            "title": "こみっくがーるず",
            "lat": "35.711834",
            "lng": "139.748802",
            "place": "善光寺坂 慈眼院沢蔵司稲荷前",
            "num": 1,
            "thumb": "comicgirls.jpg"
        },
        {
            "title": "こみっくがーるず",
            "lat": "35.711834",
            "lng": "139.748802",
            "place": "善光寺坂近く",
            "num": 1,
            "thumb": "comicgirls.jpg"
        },
        {
            "title": "こみっくがーるず",
            "lat": "35.702273",
            "lng": "139.745273",
            "place": "飯田橋駅高架下",
            "num": 1,
            "thumb": "comicgirls.jpg"
        },
        {
            "title": "こみっくがーるず",
            "lat": "35.6913527",
            "lng": "139.7011799",
            "place": "新宿駅東口 みどりの窓口前",
            "num": 3,
            "thumb": "comicgirls.jpg"
        },
        {
            "title": "こみっくがーるず",
            "lat": "35.691887",
            "lng": "139.702737",
            "place": "新宿駅 B7,B8出入口",
            "num": 3,
            "thumb": "comicgirls.jpg"
        },
        {
            "title": "こみっくがーるず",
            "lat": "35.6921219",
            "lng": "139.7023377",
            "place": "アニメイト新宿",
            "num": 37,
            "thumb": "comicgirls.jpg"
        },
        {
            "title": "こみっくがーるず",
            "lat": "35.6903109",
            "lng": "139.7045053",
            "place": "フレッシュネスバーガー 新宿３丁目店",
            "num": 11,
            "thumb": "comicgirls.jpg"
        },
        {
            "title": "こみっくがーるず",
            "lat": "35.6898839",
            "lng": "139.7051947",
            "place": "世界堂 新宿本店",
            "num": 11,
            "thumb": "comicgirls.jpg"
        },
        {
            "title": "こみっくがーるず",
            "lat": "35.6929698",
            "lng": "139.7028013",
            "place": "新宿駅付近",
            "num": 1,
            "thumb": "comicgirls.jpg"
        },
        {
            "title": "こみっくがーるず",
            "lat": "35.713230",
            "lng": "139.756604",
            "place": "新宿駅 B6,B7間",
            "num": 3,
            "thumb": "comicgirls.jpg"
        },
        {
            "title": "こみっくがーるず",
            "lat": "35.690668",
            "lng": "139.704846",
            "place": "新宿通り",
            "num": 1,
            "thumb": "comicgirls.jpg"
        },
        {
            "title": "こみっくがーるず",
            "lat": "35.6920892",
            "lng": "139.7013337",
            "place": "新宿駅東口前",
            "num": 1,
            "thumb": "comicgirls.jpg"
        },
        {
            "title": "こみっくがーるず",
            "lat": "35.6914253",
            "lng": "139.6999565",
            "place": "新宿駅 16番線ホーム",
            "num": 1,
            "thumb": "comicgirls.jpg"
        },
        {
            "title": "こみっくがーるず",
            "lat": "35.713230",
            "lng": "139.756604",
            "place": "清水橋近くバス停",
            "num": 1,
            "thumb": "comicgirls.jpg"
        },
        {
            "title": "こみっくがーるず",
            "lat": "35.711293",
            "lng": "139.752604",
            "place": "えんま通り商店街前",
            "num": 1,
            "thumb": "comicgirls.jpg"
        },
        {
            "title": "こみっくがーるず",
            "lat": "35.7124736",
            "lng": "139.7445519",
            "place": "都立竹早高校前",
            "num": 1,
            "thumb": "comicgirls.jpg"
        },
        {
            "title": "こみっくがーるず",
            "lat": "35.700290",
            "lng": "139.771851",
            "place": "とらのあな秋葉原店Ｂ横",
            "num": 23,
            "thumb": "comicgirls.jpg"
        },
        {
            "title": "こみっくがーるず",
            "lat": "35.7004645",
            "lng": "139.7722536",
            "place": "秋葉原UDX横の通り",
            "num": 1,
            "thumb": "comicgirls.jpg"
        },
        {
            "title": "こみっくがーるず",
            "lat": "35.700332",
            "lng": "139.772064",
            "place": "とらのあな秋葉原店Ｂ裏",
            "num": 1,
            "thumb": "comicgirls.jpg"
        },
        {
            "title": "こみっくがーるず",
            "lat": "35.700332",
            "lng": "139.772064",
            "place": "ブリスター コミックス前",
            "num": 7,
            "thumb": "comicgirls.jpg"
        },
        {
            "title": "こみっくがーるず",
            "lat": "35.6992456",
            "lng": "139.7714039",
            "place": "秋葉原メイン通り",
            "num": 1,
            "thumb": "comicgirls.jpg"
        },
        {
            "title": "こみっくがーるず",
            "lat": "35.660838",
            "lng": "139.700713",
            "place": "ALOOK 渋谷店",
            "num": 36,
            "thumb": "comicgirls.jpg"
        },
        {
            "title": "こみっくがーるず",
            "lat": "35.6623987",
            "lng": "139.698268",
            "place": "ロイヤルガーデンカフェ渋谷",
            "num": 21,
            "thumb": "comicgirls.jpg"
        },
        {
            "title": "こみっくがーるず",
            "lat": "35.6911141",
            "lng": "139.7024076",
            "place": "新宿ライオン会館前",
            "num": 6,
            "thumb": "comicgirls.jpg"
        },
        {
            "title": "こみっくがーるず",
            "lat": "35.6904897",
            "lng": "139.7022184",
            "place": "珈琲西武",
            "num": 1,
            "thumb": "comicgirls.jpg"
        },
        {
            "title": "こみっくがーるず",
            "lat": "35.6904775",
            "lng": "139.701761",
            "place": "星乃珈琲店 スフレ館 新宿東口店",
            "num": 1,
            "thumb": "comicgirls.jpg"
        },
        {
            "title": "こみっくがーるず",
            "lat": "35.683686",
            "lng": "139.702274",
            "place": "代々木駅 4番線ホーム",
            "num": 1,
            "thumb": "comicgirls.jpg"
        },
        {
            "title": "こみっくがーるず",
            "lat": "35.6925538",
            "lng": "139.7379243",
            "place": "外濠公園",
            "num": 8,
            "thumb": "comicgirls.jpg"
        },
        {
            "title": "こみっくがーるず",
            "lat": "35.702271",
            "lng": "139.752022",
            "place": "水道橋駅西口",
            "num": 1,
            "thumb": "comicgirls.jpg"
        },
        {
            "title": "こみっくがーるず",
            "lat": "35.702111",
            "lng": "139.753173",
            "place": "水道橋駅 ２番線ホーム",
            "num": 2,
            "thumb": "comicgirls.jpg"
        },
        {
            "title": "こみっくがーるず",
            "lat": "35.700987",
            "lng": "139.7667298",
            "place": "明神カフェ",
            "num": 7,
            "thumb": "comicgirls.jpg"
        },
        {
            "title": "こみっくがーるず",
            "lat": "35.7019218",
            "lng": "139.7670433",
            "place": "神田明神",
            "num": 19,
            "thumb": "comicgirls.jpg"
        },
        {
            "title": "こみっくがーるず",
            "lat": "35.7011018",
            "lng": "139.767147",
            "place": "神田明神入り口",
            "num": 3,
            "thumb": "comicgirls.jpg"
        },
        {
            "title": "こみっくがーるず",
            "lat": "35.6810639",
            "lng": "139.7656129",
            "place": "東京駅前",
            "num": 2,
            "thumb": "comicgirls.jpg"
        },
        {
            "title": "こみっくがーるず",
            "lat": "35.655781",
            "lng": "139.737320",
            "place": "麻布十番駅 3番出口",
            "num": 1,
            "thumb": "comicgirls.jpg"
        },
        {
            "title": "こみっくがーるず",
            "lat": "35.6550105",
            "lng": "139.737186",
            "place": "麻布十番駅 改札内トイレ前",
            "num": 6,
            "thumb": "comicgirls.jpg"
        },
        {
            "title": "こみっくがーるず",
            "lat": "35.65551",
            "lng": "139.737164",
            "place": "麻布十番駅 1番線側ホーム",
            "num": 1,
            "thumb": "comicgirls.jpg"
        },
        {
            "title": "こみっくがーるず",
            "lat": "35.030579",
            "lng": "136.729766",
            "place": "ナガシマスパーランド メインゲート",
            "num": 6,
            "thumb": "comicgirls.jpg"
        },
        {
            "title": "こみっくがーるず",
            "lat": "35.0302094",
            "lng": "136.727796",
            "place": "ナガシマスパーランド",
            "num": 1,
            "thumb": "comicgirls.jpg"
        },
        {
            "title": "こみっくがーるず",
            "lat": "35.031118",
            "lng": "136.732032",
            "place": "ナガシマスパーランド お化け屋敷前",
            "num": 1,
            "thumb": "comicgirls.jpg"
        },
        {
            "title": "こみっくがーるず",
            "lat": "35.030925",
            "lng": "136.732372",
            "place": "ナガシマスパーランド 園内１",
            "num": 2,
            "thumb": "comicgirls.jpg"
        },
        {
            "title": "こみっくがーるず",
            "lat": "35.032186",
            "lng": "136.732985",
            "place": "ナガシマスパーランド 園内２",
            "num": 1,
            "thumb": "comicgirls.jpg"
        },
        {
            "title": "こみっくがーるず",
            "lat": "35.032814",
            "lng": "136.7348835",
            "place": "ナガシマスパーランド スチールドラゴン2000",
            "num": 6,
            "thumb": "comicgirls.jpg"
        },
        {
            "title": "こみっくがーるず",
            "lat": "35.028457",
            "lng": "136.730800",
            "place": "ナガシマスパーランド キャラクターショップ横広場",
            "num": 5,
            "thumb": "comicgirls.jpg"
        },
        {
            "title": "こみっくがーるず",
            "lat": "35.028284",
            "lng": "136.730339",
            "place": "ナガシマスパーランド キャラクターショップ裏",
            "num": 8,
            "thumb": "comicgirls.jpg"
        },
        {
            "title": "こみっくがーるず",
            "lat": "35.0298581",
            "lng": "136.7332429",
            "place": "ナガシマスパーランド 大観覧車オーロラ",
            "num": 13,
            "thumb": "comicgirls.jpg"
        },
        {
            "title": "こみっくがーるず",
            "lat": "35.2847546",
            "lng": "139.6908245",
            "place": "猿島海水浴場",
            "num": 51,
            "thumb": "comicgirls.jpg"
        },
        {
            "title": "こみっくがーるず",
            "lat": "35.284607",
            "lng": "139.6910772",
            "place": "猿島レンタルショップ",
            "num": 18,
            "thumb": "comicgirls.jpg"
        },
        {
            "title": "こみっくがーるず",
            "lat": "35.7053391",
            "lng": "139.6158062",
            "place": "酒道 ハナクラ しぞ～かおでん 荻窪店",
            "num": 28,
            "thumb": "comicgirls.jpg"
        },
        {
            "title": "こみっくがーるず",
            "lat": "35.6816044",
            "lng": "139.7676073",
            "place": "東京駅 21番線ホーム 10号車乗り場",
            "num": 9,
            "thumb": "comicgirls.jpg"
        },
        {
            "title": "こみっくがーるず",
            "lat": "37.0469669",
            "lng": "140.2276551",
            "place": "白河の関 バス停",
            "num": 6,
            "thumb": "comicgirls.jpg"
        }
    ],
    "ゆるキャン△": [
        {
            "title": "ゆるキャン△",
            "num": 1,
            "thumb": "yurukyan.jpg"
        }
    ],
    "スロウスタート": [
        {
            "title": "スロウスタート",
            "lat": "36.336045",
            "lng": "138.559426",
            "place": "信濃追分駅前",
            "num": 4,
            "thumb": "slowstart.jpg"
        },
        {
            "title": "スロウスタート",
            "lat": "36.335971",
            "lng": "138.559280",
            "place": "信濃追分駅 連絡通路",
            "num": 1,
            "thumb": "slowstart.jpg"
        },
        {
            "title": "スロウスタート",
            "lat": "36.3317264",
            "lng": "138.5480641",
            "place": "信濃追分駅付近 高架橋",
            "num": 1,
            "thumb": "slowstart.jpg"
        },
        {
            "title": "スロウスタート",
            "lat": "36.331582",
            "lng": "138.548559",
            "place": "信濃追分駅付近 直売所",
            "num": 11,
            "thumb": "slowstart.jpg"
        },
        {
            "title": "スロウスタート",
            "lat": "36.3491722",
            "lng": "138.5947374",
            "place": "長倉神社",
            "num": 68,
            "thumb": "slowstart.jpg"
        },
        {
            "title": "スロウスタート",
            "lat": "36.343154",
            "lng": "138.6353417",
            "place": "軽井沢駅北口",
            "num": 30,
            "thumb": "slowstart.jpg"
        },
        {
            "title": "スロウスタート",
            "lat": "36.343539",
            "lng": "138.635702",
            "place": "軽井沢駅北口 階段下",
            "num": 1,
            "thumb": "slowstart.jpg"
        },
        {
            "title": "スロウスタート",
            "lat": "36.3423785",
            "lng": "138.635319",
            "place": "軽井沢駅南口",
            "num": 2,
            "thumb": "slowstart.jpg"
        },
        {
            "title": "スロウスタート",
            "lat": "36.3407002",
            "lng": "138.6353733",
            "place": "軽井沢・プリンスショッピングプラザ",
            "num": 71,
            "thumb": "slowstart.jpg"
        },
        {
            "title": "スロウスタート",
            "lat": "36.3411457",
            "lng": "138.6351576",
            "place": "軽井沢・プリンスショッピングプラザ２",
            "num": 1,
            "thumb": "slowstart.jpg"
        },
        {
            "title": "スロウスタート",
            "lat": "36.340810",
            "lng": "138.636308",
            "place": "軽井沢・プリンスショッピングプラザ３",
            "num": 1,
            "thumb": "slowstart.jpg"
        },
        {
            "title": "スロウスタート",
            "lat": "36.3415981",
            "lng": "138.6346722",
            "place": "軽井沢・プリンスショッピングプラザ 出入口",
            "num": 2,
            "thumb": "slowstart.jpg"
        },
        {
            "title": "スロウスタート",
            "lat": "36.3576352",
            "lng": "138.6345718",
            "place": "旧軽井沢銀座通り",
            "num": 55,
            "thumb": "slowstart.jpg"
        },
        {
            "title": "スロウスタート",
            "lat": "35.6304308",
            "lng": "139.7935849",
            "place": "東京ビッグサイト",
            "num": 5,
            "thumb": "slowstart.jpg"
        }
    ],
    "はるかなレシーブ": [
        {
            "title": "はるかなレシーブ",
            "lat": "26.214606",
            "lng": "127.652095",
            "place": "那覇空港国内線",
            "num": 6,
            "thumb": "harukana.jpg"
        },
        {
            "title": "はるかなレシーブ",
            "lat": "26.362511",
            "lng": "127.872638",
            "place": "具志川ビーチ",
            "num": 3,
            "thumb": "harukana.jpg"
        },
        {
            "title": "はるかなレシーブ",
            "lat": "26.372563",
            "lng": "127.861425",
            "place": "うるま高校(沖縄県立前原高等学校)",
            "num": 2,
            "thumb": "harukana.jpg"
        },
        {
            "title": "はるかなレシーブ",
            "lat": "26.371878",
            "lng": "127.860671",
            "place": "うるま高校(沖縄県立前原高等学校) 正門",
            "num": 1,
            "thumb": "harukana.jpg"
        },
        {
            "title": "はるかなレシーブ",
            "lat": "26.314288",
            "lng": "127.796149",
            "place": "イオンモール沖縄ライカム",
            "num": 9,
            "thumb": "harukana.jpg"
        },
        {
            "title": "はるかなレシーブ",
            "lat": "26.211926",
            "lng": "127.770047",
            "place": "西原きらきらビーチ",
            "num": 1,
            "thumb": "harukana.jpg"
        },
        {
            "title": "はるかなレシーブ",
            "lat": "26.359834",
            "lng": "127.871557",
            "place": "具志川ビーチ道中 カーブミラー前",
            "num": 3,
            "thumb": "harukana.jpg"
        },
        {
            "title": "はるかなレシーブ",
            "lat": "26.29291",
            "lng": "127.77722",
            "place": "宜野湾神社(琉球八社 普天満宮)",
            "num": 3,
            "thumb": "harukana.jpg"
        }
    ],
    "アニマエール！": [
        {
            "title": "アニマエール！",
            "lat": "35.624816",
            "lng": "139.660868",
            "place": "駒沢オリンピック公園 体育館",
            "num": 162,
            "thumb": "anima_yell.jpg"
        },
        {
            "title": "アニマエール！",
            "lat": "35.699894",
            "lng": "139.578774",
            "place": "井の頭恩賜公園 野外ステージ",
            "num": 70,
            "thumb": "anima_yell.jpg"
        },
        {
            "title": "アニマエール！",
            "lat": "35.6685677",
            "lng": "139.7056698",
            "place": "ラフォーレ原宿前",
            "num": 1,
            "thumb": "anima_yell.jpg"
        },
        {
            "title": "アニマエール！",
            "lat": "35.669828",
            "lng": "139.703086",
            "place": "明治神宮前駅 千駄ヶ谷口",
            "num": 3,
            "thumb": "anima_yell.jpg"
        },
        {
            "title": "アニマエール！",
            "lat": "36.36497",
            "lng": "139.079713",
            "place": "ヤマト市民体育館前橋",
            "num": 77,
            "thumb": "anima_yell.jpg"
        }
    ],
    "全作品": [
        {
            "title": "全作品",
            "num": 1,
            "thumb": "hobunsha.jpg"
        }
    ]
}